[
  {
    "address": "广东省深圳市罗湖区深南东路5016号京基100大厦A座",
    "city": "广东省深圳市罗湖区",
    "city_id": 11,
    "distance": "833m",
    "district_id": 5635,
    "geohash": "ws10hxcfvmx4",
    "id": "B02F38IYKF",
    "latitude": 22.543074,
    "longitude": 114.106642,
    "name": "深圳瑞吉酒店",
    "request_id": "7452146148074795352",
    "short_address": "深南东路5016号京基100大厦A座"
  },
  {
    "address": "广东省深圳市罗湖区深南东路5016号京基百纳空间F3层L310",
    "city": "广东省深圳市罗湖区",
    "city_id": 11,
    "distance": "937m",
    "district_id": 5635,
    "geohash": "ws10k81dzw70",
    "id": "B0FFGM9UU7",
    "latitude": 22.544451,
    "longitude": 114.10639,
    "name": "润园四季椰子鸡(KK Mall店)",
    "request_id": "2235573363476034855",
    "short_address": "深南东路5016号京基百纳空间F3层L310"
  },
  {
    "address": "广东省深圳市罗湖区东门北路1017号",
    "city": "广东省深圳市罗湖区",
    "city_id": 11,
    "distance": "2.5km",
    "district_id": 5635,
    "geohash": "ws10m43r7fxq",
    "id": "B02F37W9ER",
    "latitude": 22.557564,
    "longitude": 114.127864,
    "name": "深圳市人民医院",
    "request_id": "9097154438595684089",
    "short_address": "东门北路1017号"
  },
  {
    "address": "广东省深圳市福田区金田路4028号",
    "city": "广东省深圳市福田区",
    "city_id": 11,
    "distance": "5.2km",
    "district_id": 5636,
    "geohash": "ws107848efd6",
    "id": "B02F30A12N",
    "latitude": 22.544045,
    "longitude": 114.063656,
    "name": "荣超经贸中心",
    "request_id": "3251793128399505267",
    "short_address": "金田路4028号"
  },
  {
    "address": "广东省深圳市福田区金田路4036号",
    "city": "广东省深圳市福田区",
    "city_id": 11,
    "distance": "5.2km",
    "district_id": 5636,
    "geohash": "ws1078f86rte",
    "id": "B02F38K44J",
    "latitude": 22.548149,
    "longitude": 114.063596,
    "name": "荣超大厦",
    "request_id": "5838030516967392016",
    "short_address": "金田路4036号"
  },
  {
    "address": "广东省深圳市龙岗区荣华路295号",
    "city": "广东省深圳市龙岗区",
    "city_id": 11,
    "distance": "6km",
    "district_id": 5639,
    "geohash": "ws10sbgpf9dw",
    "id": "B02F30A6ZK",
    "latitude": 22.59335,
    "longitude": 114.119221,
    "name": "荣超花园",
    "request_id": "3097570029207317807",
    "short_address": "荣华路295号"
  },
  {
    "address": "广东省深圳市福田区深南大道6002号",
    "city": "广东省深圳市福田区",
    "city_id": 11,
    "distance": "6.8km",
    "district_id": 5636,
    "geohash": "ws105pquqggm",
    "id": "B02F37RM13",
    "latitude": 22.540576,
    "longitude": 114.04765,
    "name": "人民大厦(深南大道)",
    "request_id": "4515382120384399267",
    "short_address": "深南大道6002号"
  },
  {
    "address": "广东省深圳市福田区金地四路2号",
    "city": "广东省深圳市福田区",
    "city_id": 11,
    "distance": "7.7km",
    "district_id": 5636,
    "geohash": "ws1055dqux39",
    "id": "B02F302120",
    "latitude": 22.520424,
    "longitude": 114.041371,
    "name": "深圳仁爱医院",
    "request_id": "4102510241167739614",
    "short_address": "金地四路2号"
  },
  {
    "address": "广东省深圳市福田区深圳市人力资源和社会保障局大楼B1楼",
    "city": "广东省深圳市福田区",
    "city_id": 11,
    "distance": "10.7km",
    "district_id": 5636,
    "geohash": "ws104mg66edx",
    "id": "B02F38KT25",
    "latitude": 22.531992,
    "longitude": 114.009701,
    "name": "深圳市人才园",
    "request_id": "9054717118520720270",
    "short_address": "深圳市人力资源和社会保障局大楼B1楼"
  },
  {
    "address": "广东省深圳市南山区后海大道与滨海大道交汇处",
    "city": "广东省深圳市南山区",
    "city_id": 11,
    "distance": "18.1km",
    "district_id": 5637,
    "geohash": "ws100srdu2ut",
    "id": "B02F38JM67",
    "latitude": 22.523823,
    "longitude": 113.938711,
    "name": "深圳市软件产业基地",
    "request_id": "7940280765406079236",
    "short_address": "后海大道与滨海大道交汇处"
  }
]
